%  GPST                  e-baseline(m)  n-baseline(m)  u-baseline(m)   Q  ns   sde(m)   sdn(m)   sdu(m)  sden(m)  sdnu(m)  sdue(m) age(s)  ratio
2023/06/14 07:53:48.200         6.2714       -17.2973        -3.6246   2   6   0.7675   0.8546   1.6246   0.6621  -0.7949  -0.7362   0.40    1.7
2023/06/14 07:53:48.400         6.2946       -17.2759        -3.6464   2   6   0.5450   0.6076   1.1548   0.4706  -0.5664  -0.5234   0.60    1.6
2023/06/14 07:53:48.600         6.3334       -17.2438        -3.7237   2   6   0.4456   0.4971   0.9446   0.3849  -0.4636  -0.4281   0.60    1.8
2023/06/14 07:53:48.800         6.2756       -17.4476        -3.1415   2   5   0.3875   0.4418   0.8585   0.3382  -0.4321  -0.3818   0.40    1.4
2023/06/14 07:53:49.000         6.2231       -17.5977        -2.7012   2   5   0.3476   0.4024   0.7933   0.3056  -0.4055  -0.3486   0.40    1.9
2023/06/14 07:53:49.200         6.1930       -17.7104        -2.3599   2   5   0.3180   0.3723   0.7416   0.2811  -0.3829  -0.3230   0.40    2.1
2023/06/14 07:53:49.400         6.2333       -17.6019        -2.6169   2   6   0.2941   0.3416   0.6753   0.2590  -0.3462  -0.2960   0.60    1.1
2023/06/14 07:53:49.600         6.2433       -17.5398        -2.7816   2   6   0.2749   0.3174   0.6243   0.2414  -0.3184  -0.2748   0.40    1.0
2023/06/14 07:53:49.800         6.2567       -17.4895        -2.9369   2   6   0.2590   0.2978   0.5834   0.2270  -0.2963  -0.2577   0.40    1.0
2023/06/14 07:53:50.000         6.2695       -17.4431        -3.0493   2   6   0.2456   0.2815   0.5496   0.2149  -0.2782  -0.2434   0.40    1.0
2023/06/14 07:53:50.800         6.2466       -17.5186        -2.8442   2   5   0.2345   0.2705   0.5314   0.2058  -0.2707  -0.2340   0.80    1.9
2023/06/14 07:53:51.000         6.2256       -17.5815        -2.6711   2   5   0.2247   0.2607   0.5149   0.1978  -0.2637  -0.2258   1.00    2.0
2023/06/14 07:53:51.200         6.1987       -17.6407        -2.5203   2   5   0.2161   0.2520   0.4999   0.1906  -0.2571  -0.2184   1.20    2.2
2023/06/14 07:53:51.400         6.1787       -17.6914        -2.3758   2   5   0.2084   0.2441   0.4862   0.1843  -0.2511  -0.2117   1.40    2.4
2023/06/14 07:53:51.600         6.1878       -17.6449        -2.4986   2   6   0.2013   0.2348   0.4659   0.1776  -0.2398  -0.2035   1.60    1.4
2023/06/14 07:53:51.800         6.2055       -17.5988        -2.6206   2   6   0.1948   0.2264   0.4481   0.1716  -0.2299  -0.1961   1.20    1.3
2023/06/14 07:53:52.000         6.2139       -17.5592        -2.7410   2   6   0.1889   0.2189   0.4322   0.1661  -0.2212  -0.1896   0.40    1.3
2023/06/14 07:53:52.200         6.2212       -17.5282        -2.8278   2   6   0.1835   0.2122   0.4178   0.1612  -0.2133  -0.1836   0.40    1.4
2023/06/14 07:53:52.400         6.2247       -17.4981        -2.9085   2   6   0.1785   0.2060   0.4049   0.1567  -0.2063  -0.1782   0.60    1.5
2023/06/14 07:53:52.600         6.2347       -17.4701        -2.9808   2   6   0.1740   0.2003   0.3930   0.1525  -0.1999  -0.1733   0.40    1.6
2023/06/14 07:53:52.800         6.2352       -17.4528        -3.0394   2   6   0.1697   0.1951   0.3822   0.1487  -0.1940  -0.1687   0.40    1.7
2023/06/14 07:53:53.200         6.2435       -17.4314        -3.0970   2   6   0.1658   0.1903   0.3722   0.1451  -0.1886  -0.1645   0.40    1.6
2023/06/14 07:53:53.400         6.2499       -17.4069        -3.1617   2   6   0.1621   0.1858   0.3630   0.1418  -0.1837  -0.1605   0.60    1.7
2023/06/14 07:53:53.600         6.2539       -17.3964        -3.1966   2   6   0.1587   0.1816   0.3544   0.1387  -0.1791  -0.1569   0.60    1.7
2023/06/14 07:53:53.800         6.2510       -17.3767        -3.2437   2   6   0.1554   0.1777   0.3464   0.1358  -0.1749  -0.1535   0.40    1.7
2023/06/14 07:53:54.000         6.2535       -17.3605        -3.2988   2   6   0.1524   0.1741   0.3389   0.1331  -0.1709  -0.1503   0.40    1.7
2023/06/14 07:53:54.200         6.2553       -17.3484        -3.3231   2   6   0.1495   0.1706   0.3319   0.1305  -0.1672  -0.1473   0.40    1.7
2023/06/14 07:53:54.400         6.2478       -17.3710        -3.2649   2   5   0.1469   0.1681   0.3279   0.1284  -0.1656  -0.1451   0.60    2.2
2023/06/14 07:53:54.600         6.2415       -17.3573        -3.3095   2   6   0.1443   0.1650   0.3214   0.1261  -0.1621  -0.1424   0.60    1.7
2023/06/14 07:53:55.000         6.2290       -17.3849        -3.2383   2   5   0.1420   0.1627   0.3177   0.1241  -0.1607  -0.1404   0.40    2.2
2023/06/14 07:53:55.200         6.2355       -17.3607        -3.2928   2   6   0.1396   0.1598   0.3118   0.1221  -0.1575  -0.1380   0.40    1.7
2023/06/14 07:53:55.400         6.2375       -17.3416        -3.3349   2   6   0.1374   0.1571   0.3063   0.1201  -0.1546  -0.1356   0.60    1.7
2023/06/14 07:53:55.600         6.2339       -17.3261        -3.3872   2   6   0.1353   0.1546   0.3011   0.1182  -0.1518  -0.1334   0.60    1.7
2023/06/14 07:53:57.200         6.2301       -17.3099        -3.4278   2   6   0.1333   0.1521   0.2961   0.1163  -0.1491  -0.1312   1.40    1.7
2023/06/14 07:53:57.400         6.2322       -17.2797        -3.5189   2   6   0.1313   0.1495   0.2898   0.1145  -0.1455  -0.1289   1.60    1.3
2023/06/14 07:53:57.600         6.2254       -17.2550        -3.5798   2   6   0.1294   0.1469   0.2838   0.1127  -0.1421  -0.1267   0.40    1.2
2023/06/14 07:53:58.200         6.2228       -17.2301        -3.6613   2   6   0.1276   0.1444   0.2783   0.1110  -0.1390  -0.1247   0.40    1.0
2023/06/14 07:53:58.400         6.2227       -17.2041        -3.7308   2   6   0.1259   0.1421   0.2731   0.1094  -0.1360  -0.1227   0.60    1.2
2023/06/14 07:53:58.600         6.2185       -17.1938        -3.7581   2   6   0.1243   0.1402   0.2695   0.1080  -0.1342  -0.1210   0.40    1.3
2023/06/14 07:53:58.800         6.2077       -17.1848        -3.7834   2   6   0.1227   0.1384   0.2659   0.1066  -0.1323  -0.1194   0.40    1.3
2023/06/14 07:53:59.000         6.2051       -17.1733        -3.8188   2   6   0.1212   0.1367   0.2625   0.1052  -0.1305  -0.1179   0.40    1.3
2023/06/14 07:53:59.600         6.1933       -17.1622        -3.8433   2   6   0.1197   0.1349   0.2592   0.1039  -0.1288  -0.1164   0.40    1.3
2023/06/14 07:53:59.800         6.1930       -17.1520        -3.8922   2   6   0.1183   0.1333   0.2560   0.1027  -0.1272  -0.1149   0.40    1.2
2023/06/14 07:54:00.000         6.1838       -17.1447        -3.9200   2   6   0.1169   0.1317   0.2529   0.1015  -0.1256  -0.1136   0.40    1.2
2023/06/14 07:54:00.200         6.1698       -17.1663        -3.8631   2   5   0.1156   0.1305   0.2512   0.1004  -0.1249  -0.1125   0.40    1.1
2023/06/14 07:54:00.400         6.1656       -17.1556        -3.9003   2   6   0.1144   0.1290   0.2481   0.0993  -0.1234  -0.1112   0.60    1.2
2023/06/14 07:54:00.600         6.1574       -17.1469        -3.9342   2   6   0.1132   0.1276   0.2453   0.0982  -0.1219  -0.1100   0.60    1.2
2023/06/14 07:54:00.800         6.1502       -17.1372        -3.9650   2   6   0.1119   0.1262   0.2426   0.0971  -0.1205  -0.1088   0.40    1.1
2023/06/14 07:54:01.000         6.1434       -17.1318        -3.9937   2   6   0.1108   0.1249   0.2400   0.0961  -0.1192  -0.1076   0.40    1.1
2023/06/14 07:54:01.200         6.1390       -17.1219        -4.0237   2   6   0.1097   0.1236   0.2374   0.0951  -0.1178  -0.1064   0.40    1.1
2023/06/14 07:54:01.400         6.1337       -17.1140        -4.0554   2   6   0.1086   0.1223   0.2350   0.0941  -0.1166  -0.1053   0.60    1.1
2023/06/14 07:54:01.600         6.1324       -17.0994        -4.1000   2   6   0.1075   0.1211   0.2326   0.0932  -0.1153  -0.1043   0.60    1.1
2023/06/14 07:54:01.800         6.1231       -17.0936        -4.1157   2   6   0.1065   0.1199   0.2303   0.0923  -0.1141  -0.1032   0.60    1.1
2023/06/14 07:54:02.000         6.1183       -17.0823        -4.1472   2   6   0.1055   0.1187   0.2280   0.0914  -0.1130  -0.1022   0.40    1.0
2023/06/14 07:54:02.200         6.1133       -17.0739        -4.1753   2   6   0.1045   0.1176   0.2259   0.0905  -0.1119  -0.1012   0.60    1.0
2023/06/14 07:54:02.400         6.1254       -17.0489        -4.1746   2  10   0.1032   0.1155   0.2231   0.0893  -0.1107  -0.1003   0.80    1.0
2023/06/14 07:54:02.600         6.1297       -17.0487        -4.1179   2   9   0.1020   0.1137   0.2212   0.0881  -0.1101  -0.0995   1.00    1.1
2023/06/14 07:54:02.800         6.1327       -17.0509        -4.0525   2   9   0.1009   0.1120   0.2192   0.0870  -0.1095  -0.0988   1.20    1.0
2023/06/14 07:54:03.000         6.1372       -17.0299        -4.0561   2  10   0.0998   0.1102   0.2165   0.0859  -0.1083  -0.0979   1.20    1.3
2023/06/14 07:54:03.200         6.1372       -17.0159        -4.0627   2  10   0.0987   0.1085   0.2140   0.0848  -0.1072  -0.0970   0.40    1.2
2023/06/14 07:54:03.400         6.1444       -16.9971        -4.0746   2  10   0.0976   0.1068   0.2117   0.0837  -0.1061  -0.0962   0.60    1.2
2023/06/14 07:54:03.600         6.1451       -16.9924        -4.0518   2  11   0.0966   0.1052   0.2090   0.0827  -0.1048  -0.0953   0.60    1.0
2023/06/14 07:54:03.800         6.1428       -16.9894        -4.0326   2  11   0.0956   0.1036   0.2065   0.0817  -0.1036  -0.0944   0.40    1.0
2023/06/14 07:54:04.000         6.1431       -16.9746        -4.0436   2  10   0.0946   0.1022   0.2044   0.0808  -0.1026  -0.0936   0.40    1.1
2023/06/14 07:54:04.200         6.1435       -16.9662        -4.0369   2  11   0.0937   0.1008   0.2019   0.0798  -0.1014  -0.0927   0.40    1.0
2023/06/14 07:54:04.400         6.1459       -16.9603        -4.0277   2  11   0.0928   0.0994   0.1997   0.0790  -0.1003  -0.0919   0.60    1.0
2023/06/14 07:54:04.600         6.1500       -16.9665        -3.9729   2   5   0.0937   0.0992   0.2004   0.0794  -0.1010  -0.0932   0.60    1.3
2023/06/14 07:54:04.800         6.1503       -16.9609        -3.9744   2  11   0.0917   0.0975   0.1967   0.0778  -0.0989  -0.0910   0.40    1.1
2023/06/14 07:54:05.000         6.1465       -16.9579        -3.9629   2  11   0.0909   0.0962   0.1946   0.0770  -0.0978  -0.0902   0.40    1.1
2023/06/14 07:54:05.200         6.1409       -16.9588        -3.9246   2  11   0.0900   0.0951   0.1926   0.0762  -0.0968  -0.0894   0.40    1.1
2023/06/14 07:54:05.400         6.1308       -16.9777        -3.8549   2  10   0.0892   0.0940   0.1911   0.0755  -0.0962  -0.0888   0.60    1.2
2023/06/14 07:54:05.600         6.1253       -16.9900        -3.7924   2  10   0.0885   0.0930   0.1897   0.0748  -0.0956  -0.0882   0.60    1.2
2023/06/14 07:54:05.800         6.1196       -16.9927        -3.7539   2   9   0.0877   0.0922   0.1885   0.0742  -0.0952  -0.0877   0.40    1.2
2023/06/14 07:54:06.000         6.1189       -16.9975        -3.7158   2   9   0.0870   0.0913   0.1874   0.0735  -0.0947  -0.0872   0.40    1.2
2023/06/14 07:54:06.200         6.1300       -16.9861        -3.7078   2   4   0.0880   0.0915   0.1891   0.0743  -0.0961  -0.0890   0.40    1.1
2023/06/14 07:54:06.400         6.1401       -16.9779        -3.6939   2   4   0.0879   0.0912   0.1888   0.0741  -0.0960  -0.0889   0.60    1.2
2023/06/14 07:54:06.600         6.1310       -16.9772        -3.6727   2  11   0.0860   0.0895   0.1847   0.0725  -0.0936  -0.0864   0.60    1.1
2023/06/14 07:54:06.800         6.1477       -16.9635        -3.6703   2   4   0.0870   0.0898   0.1866   0.0733  -0.0950  -0.0882   0.40    1.2
2023/06/14 07:54:07.000         6.1409       -16.9500        -3.6809   2  10   0.0851   0.0882   0.1828   0.0717  -0.0928  -0.0857   0.40    1.1
2023/06/14 07:54:07.200         6.1409       -16.9363        -3.7012   2  10   0.0845   0.0874   0.1813   0.0711  -0.0921  -0.0851   0.40    1.2
2023/06/14 07:54:07.400         6.1371       -16.9251        -3.7134   2  10   0.0838   0.0865   0.1798   0.0705  -0.0914  -0.0845   0.60    1.3
2023/06/14 07:54:07.600         6.1339       -16.9128        -3.7330   2  10   0.0832   0.0858   0.1784   0.0699  -0.0907  -0.0839   0.60    1.3
2023/06/14 07:54:07.800         6.1381       -16.8996        -3.7552   2  10   0.0825   0.0850   0.1770   0.0694  -0.0900  -0.0833   0.40    1.3
2023/06/14 07:54:08.000         6.1301       -16.8930        -3.7525   2  10   0.0819   0.0842   0.1757   0.0688  -0.0894  -0.0828   0.40    1.3
2023/06/14 07:54:08.200         6.1294       -16.8855        -3.7649   2  10   0.0813   0.0835   0.1744   0.0683  -0.0887  -0.0822   0.40    1.3
2023/06/14 07:54:08.400         6.1254       -16.8760        -3.7773   2  10   0.0808   0.0828   0.1731   0.0678  -0.0881  -0.0817   0.60    1.3
2023/06/14 07:54:08.600         6.1239       -16.8696        -3.7877   2  10   0.0802   0.0821   0.1718   0.0673  -0.0875  -0.0812   0.60    1.2
2023/06/14 07:54:08.800         6.1201       -16.8628        -3.7980   2  10   0.0797   0.0814   0.1706   0.0667  -0.0869  -0.0806   0.40    1.2
2023/06/14 07:54:09.000         6.1168       -16.8539        -3.8072   2  10   0.0791   0.0808   0.1694   0.0663  -0.0863  -0.0801   0.40    1.2
2023/06/14 07:54:09.200         6.1134       -16.8458        -3.8201   2  10   0.0786   0.0801   0.1682   0.0658  -0.0858  -0.0796   0.40    1.2
2023/06/14 07:54:09.400         6.1118       -16.8367        -3.8331   2  10   0.0780   0.0795   0.1671   0.0653  -0.0852  -0.0791   0.60    1.2
2023/06/14 07:54:09.600         6.1095       -16.8278        -3.8489   2  10   0.0776   0.0789   0.1659   0.0649  -0.0847  -0.0786   0.60    1.2
2023/06/14 07:54:09.800         6.1023       -16.8242        -3.8479   2  10   0.0770   0.0783   0.1648   0.0644  -0.0841  -0.0782   0.40    1.2
2023/06/14 07:54:10.000         6.0975       -16.8183        -3.8547   2  10   0.0765   0.0777   0.1637   0.0640  -0.0836  -0.0777   0.60    1.2
2023/06/14 07:54:10.200         6.0963       -16.8096        -3.8677   2  10   0.0761   0.0771   0.1627   0.0636  -0.0831  -0.0772   0.80    1.2
2023/06/14 07:54:10.400         6.0905       -16.8062        -3.8696   2  10   0.0756   0.0766   0.1616   0.0632  -0.0826  -0.0768   1.00    1.2
2023/06/14 07:54:10.600         6.0881       -16.8008        -3.8768   2  10   0.0751   0.0760   0.1606   0.0628  -0.0821  -0.0764   1.20    1.2
2023/06/14 07:54:10.800         6.0838       -16.7949        -3.8829   2  10   0.0747   0.0755   0.1596   0.0624  -0.0816  -0.0759   1.40    1.2
2023/06/14 07:54:11.000         6.0992       -16.7801        -3.9169   2   4   0.0759   0.0761   0.1621   0.0633  -0.0834  -0.0780   0.80    1.2
2023/06/14 07:54:11.200         6.1016       -16.7784        -3.9058   2   4   0.0758   0.0759   0.1619   0.0632  -0.0833  -0.0780   1.00    1.2
2023/06/14 07:54:11.400         6.1005       -16.7808        -3.8923   2   4   0.0757   0.0757   0.1617   0.0632  -0.0833  -0.0780   1.20    1.1
2023/06/14 07:54:11.600         6.0963       -16.7788        -3.8736   2   4   0.0755   0.0754   0.1613   0.0630  -0.0831  -0.0779   0.40    1.1
2023/06/14 07:54:11.800         6.0876       -16.7833        -3.8553   2  10   0.0738   0.0741   0.1577   0.0615  -0.0808  -0.0753   0.40    1.2
2023/06/14 07:54:12.000         6.0787       -16.7833        -3.8649   2  10   0.0733   0.0736   0.1567   0.0611  -0.0803  -0.0749   0.40    1.2
2023/06/14 07:54:12.200         6.0709       -16.7792        -3.8779   2  10   0.0729   0.0731   0.1558   0.0607  -0.0799  -0.0745   0.40    1.2
2023/06/14 07:54:12.400         6.0675       -16.7755        -3.8838   2  10   0.0725   0.0726   0.1549   0.0604  -0.0794  -0.0741   0.40    1.2
2023/06/14 07:54:12.600         6.0578       -16.7751        -3.8850   2  10   0.0721   0.0721   0.1540   0.0600  -0.0790  -0.0737   0.40    1.2
2023/06/14 07:54:12.800         6.0562       -16.7744        -3.8735   2   4   0.0733   0.0728   0.1565   0.0610  -0.0807  -0.0758   0.40    1.1
2023/06/14 07:54:13.000         6.0595       -16.7719        -3.8658   2   4   0.0732   0.0726   0.1563   0.0609  -0.0807  -0.0758   0.60    1.1
2023/06/14 07:54:13.200         6.0617       -16.7678        -3.8576   2   4   0.0732   0.0724   0.1562   0.0609  -0.0807  -0.0757   0.80    1.1
2023/06/14 07:54:13.400         6.0576       -16.7660        -3.8671   2  10   0.0714   0.0711   0.1524   0.0594  -0.0783  -0.0732   0.60    1.2
2023/06/14 07:54:13.600         6.0483       -16.7658        -3.8722   2  10   0.0710   0.0707   0.1516   0.0590  -0.0779  -0.0728   0.80    1.2
2023/06/14 07:54:13.800         6.0397       -16.7647        -3.8747   2  10   0.0706   0.0702   0.1507   0.0587  -0.0775  -0.0724   1.00    1.2
2023/06/14 07:54:14.000         6.0314       -16.7640        -3.8735   2  10   0.0702   0.0698   0.1499   0.0584  -0.0771  -0.0720   1.20    1.2
2023/06/14 07:54:14.200         6.0189       -16.7677        -3.8669   2  10   0.0699   0.0694   0.1491   0.0580  -0.0766  -0.0716   1.40    1.2
2023/06/14 07:54:14.400         6.0111       -16.7693        -3.8680   2  10   0.0695   0.0690   0.1483   0.0577  -0.0762  -0.0713   1.40    1.2
2023/06/14 07:54:14.600         6.0067       -16.7721        -3.8586   2   4   0.0708   0.0697   0.1509   0.0588  -0.0781  -0.0734   0.60    1.1
2023/06/14 07:54:14.800         6.0004       -16.7755        -3.8450   2  11   0.0690   0.0684   0.1471   0.0573  -0.0756  -0.0708   0.40    1.0
2023/06/14 07:54:15.000         5.9891       -16.7851        -3.8213   2  11   0.0687   0.0679   0.1462   0.0569  -0.0752  -0.0704   0.60    1.1
2023/06/14 07:54:15.200         5.9791       -16.7932        -3.8054   2  11   0.0683   0.0675   0.1453   0.0566  -0.0747  -0.0700   0.80    1.1
2023/06/14 07:54:15.400         5.9643       -16.8012        -3.7793   2  11   0.0680   0.0671   0.1445   0.0563  -0.0742  -0.0696   1.00    1.1
2023/06/14 07:54:15.600         5.9598       -16.8033        -3.7650   2   5   0.0691   0.0675   0.1461   0.0572  -0.0754  -0.0713   0.40    1.1
2023/06/14 07:54:15.800         5.9597       -16.8094        -3.7381   2   5   0.0691   0.0674   0.1458   0.0571  -0.0753  -0.0713   0.40    1.1
2023/06/14 07:54:16.000         5.9562       -16.8161        -3.7106   2   5   0.0690   0.0672   0.1456   0.0570  -0.0751  -0.0712   0.60    1.1
2023/06/14 07:54:16.200         5.9525       -16.8214        -3.6899   2   5   0.0689   0.0671   0.1453   0.0569  -0.0750  -0.0712   0.80    1.1
2023/06/14 07:54:16.400         5.9549       -16.8249        -3.6665   2   5   0.0689   0.0669   0.1451   0.0569  -0.0749  -0.0712   1.00    1.1
2023/06/14 07:54:16.600         5.9573       -16.8296        -3.6379   2   5   0.0688   0.0667   0.1449   0.0568  -0.0749  -0.0712   1.20    1.1
2023/06/14 07:54:16.800         5.9514       -16.8261        -3.6474   2  10   0.0685   0.0666   0.1451   0.0566  -0.0751  -0.0712   0.40    1.0
2023/06/14 07:54:17.000         5.9427       -16.8230        -3.6512   2  10   0.0675   0.0658   0.1430   0.0558  -0.0739  -0.0698   0.40    1.0
2023/06/14 07:54:17.200         5.9282       -16.8285        -3.6421   2  10   0.0669   0.0654   0.1419   0.0553  -0.0732  -0.0692   0.40    1.0
2023/06/14 07:54:17.400         5.9196       -16.8275        -3.6353   2  10   0.0665   0.0650   0.1410   0.0550  -0.0728  -0.0687   0.60    1.0
2023/06/14 07:54:17.600         5.9115       -16.8258        -3.6433   2  11   0.0661   0.0645   0.1397   0.0546  -0.0720  -0.0681   0.60    1.0
2023/06/14 07:54:17.800         5.9050       -16.8219        -3.6495   2  11   0.0657   0.0641   0.1387   0.0543  -0.0715  -0.0677   0.40    1.1
2023/06/14 07:54:18.000         5.8974       -16.8190        -3.6555   2  11   0.0654   0.0637   0.1378   0.0540  -0.0710  -0.0673   0.40    1.1
2023/06/14 07:54:18.200         5.8382       -16.8503        -3.5579   2  12   0.0648   0.0632   0.1367   0.0535  -0.0703  -0.0665   0.40    1.0
2023/06/14 07:54:18.400         5.7862       -16.8809        -3.4685   2  12   0.0642   0.0628   0.1355   0.0530  -0.0696  -0.0656   0.60    1.1
2023/06/14 07:54:18.600         5.7894       -16.8822        -3.4487   2   5   0.0655   0.0632   0.1370   0.0539  -0.0707  -0.0673   0.60    1.0
2023/06/14 07:54:18.800         5.7316       -16.9227        -3.3464   2  12   0.0637   0.0622   0.1344   0.0526  -0.0690  -0.0651   0.40    1.0
2023/06/14 07:54:19.000         5.6797       -16.9515        -3.2683   2  12   0.0632   0.0618   0.1333   0.0521  -0.0684  -0.0643   0.40    1.1
2023/06/14 07:54:19.200         5.6269       -16.9846        -3.1724   2  12   0.0628   0.0615   0.1325   0.0518  -0.0679  -0.0638   0.40    1.0
2023/06/14 07:54:19.400         5.5758       -17.0145        -3.0850   2  12   0.0623   0.0611   0.1314   0.0514  -0.0673  -0.0631   0.60    1.1
2023/06/14 07:54:19.600         5.5273       -17.0449        -3.0007   2  12   0.0617   0.0606   0.1304   0.0510  -0.0668  -0.0625   0.80    1.1
2023/06/14 07:54:19.800         5.4794       -17.0749        -2.9198   2  12   0.0613   0.0603   0.1295   0.0506  -0.0662  -0.0618   1.00    1.1
2023/06/14 07:54:20.000         5.4298       -17.1042        -2.8347   2  12   0.0609   0.0600   0.1286   0.0503  -0.0657  -0.0612   1.20    1.2
2023/06/14 07:54:20.200         5.4273       -17.1062        -2.8179   2   5   0.0624   0.0606   0.1305   0.0514  -0.0670  -0.0633   1.20    1.2
2023/06/14 07:54:20.400         5.4271       -17.1056        -2.8131   2  11   0.0606   0.0595   0.1277   0.0499  -0.0652  -0.0608   0.40    1.3
2023/06/14 07:54:20.600         5.4175       -17.1106        -2.7975   2  11   0.0602   0.0592   0.1270   0.0497  -0.0648  -0.0605   0.60    1.3
2023/06/14 07:54:20.800         5.4177       -17.1135        -2.7982   2   5   0.0616   0.0597   0.1288   0.0507  -0.0661  -0.0623   0.40    1.2
2023/06/14 07:54:21.000         5.4089       -17.1168        -2.7764   2  11   0.0598   0.0587   0.1261   0.0493  -0.0644  -0.0600   0.40    1.3
2023/06/14 07:54:21.200         5.4031       -17.1172        -2.7681   2  11   0.0595   0.0585   0.1253   0.0491  -0.0640  -0.0596   0.40    1.3
2023/06/14 07:54:21.400         5.3969       -17.1205        -2.7600   2  11   0.0592   0.0582   0.1247   0.0488  -0.0636  -0.0592   0.60    1.3
2023/06/14 07:54:21.600         5.3873       -17.1261        -2.7432   2  11   0.0589   0.0578   0.1240   0.0485  -0.0632  -0.0589   0.60    1.3
2023/06/14 07:54:21.800         5.3784       -17.1326        -2.7222   2  11   0.0586   0.0576   0.1233   0.0483  -0.0629  -0.0585   0.20    1.3
2023/06/14 07:54:22.000         5.3745       -17.1335        -2.7133   2  11   0.0583   0.0573   0.1227   0.0481  -0.0625  -0.0581   0.40    1.3
2023/06/14 07:54:22.200         5.3785       -17.1325        -2.7138   2   5   0.0598   0.0579   0.1246   0.0491  -0.0638  -0.0602   0.40    1.2
2023/06/14 07:54:22.400         5.3821       -17.1338        -2.6979   2   5   0.0598   0.0578   0.1244   0.0491  -0.0638  -0.0601   0.60    1.2
2023/06/14 07:54:22.600         5.3660       -17.1435        -2.6674   2  11   0.0579   0.0568   0.1217   0.0477  -0.0620  -0.0577   0.60    1.3
2023/06/14 07:54:22.800         5.3706       -17.1423        -2.6601   2   5   0.0594   0.0574   0.1236   0.0487  -0.0634  -0.0598   0.40    1.2
2023/06/14 07:54:23.000         5.3662       -17.1418        -2.6672   2   5   0.0593   0.0573   0.1234   0.0487  -0.0633  -0.0597   0.40    1.2
2023/06/14 07:54:23.200         5.3733       -17.1407        -2.6525   2   5   0.0593   0.0572   0.1233   0.0486  -0.0632  -0.0597   0.40    1.2
2023/06/14 07:54:23.400         5.3735       -17.1435        -2.6398   2   5   0.0593   0.0571   0.1231   0.0486  -0.0631  -0.0597   0.60    1.2
2023/06/14 07:54:23.600         5.3599       -17.1538        -2.6122   2  11   0.0574   0.0560   0.1204   0.0472  -0.0614  -0.0572   0.60    1.3
2023/06/14 07:54:23.800         5.3516       -17.1574        -2.6003   2  11   0.0571   0.0559   0.1198   0.0470  -0.0610  -0.0569   0.40    1.3
2023/06/14 07:54:24.000         5.3408       -17.1602        -2.5858   2  11   0.0568   0.0556   0.1192   0.0467  -0.0607  -0.0566   0.40    1.2
2023/06/14 07:54:24.200         5.3457       -17.1593        -2.5844   2   5   0.0584   0.0562   0.1212   0.0478  -0.0621  -0.0587   0.40    1.2
2023/06/14 07:54:24.400         5.3474       -17.1616        -2.5718   2   5   0.0583   0.0561   0.1210   0.0478  -0.0620  -0.0587   0.60    1.2
2023/06/14 07:54:24.600         5.3518       -17.1620        -2.5581   2   5   0.0583   0.0560   0.1209   0.0478  -0.0620  -0.0586   0.80    1.2
2023/06/14 07:54:24.800         5.3470       -17.1701        -2.5378   2   5   0.0583   0.0559   0.1208   0.0477  -0.0619  -0.0587   1.00    1.2
2023/06/14 07:54:25.000         5.3455       -17.1697        -2.5311   2   5   0.0583   0.0558   0.1207   0.0477  -0.0619  -0.0587   1.20    1.2
2023/06/14 07:54:25.200         5.3497       -17.1705        -2.5218   2   5   0.0583   0.0558   0.1206   0.0477  -0.0619  -0.0587   1.40    1.2
2023/06/14 07:54:25.400         5.3353       -17.1785        -2.4895   2  11   0.0580   0.0555   0.1200   0.0474  -0.0615  -0.0584   1.40    1.0
2023/06/14 07:54:25.600         5.3212       -17.1845        -2.4793   2  11   0.0568   0.0548   0.1181   0.0465  -0.0604  -0.0568   0.60    1.1
2023/06/14 07:54:25.800         5.3106       -17.1882        -2.4671   2  11   0.0562   0.0544   0.1172   0.0461  -0.0598  -0.0561   0.40    1.0
2023/06/14 07:54:26.000         5.2959       -17.1953        -2.4440   2  11   0.0558   0.0541   0.1164   0.0458  -0.0594  -0.0556   0.40    1.1
2023/06/14 07:54:26.200         5.2883       -17.2014        -2.4198   2  11   0.0555   0.0538   0.1158   0.0455  -0.0590  -0.0552   0.40    1.1
2023/06/14 07:54:26.400         5.2797       -17.2046        -2.4106   2  11   0.0552   0.0536   0.1152   0.0453  -0.0587  -0.0548   0.60    1.2
2023/06/14 07:54:26.600         5.2689       -17.2106        -2.3961   2  11   0.0549   0.0534   0.1146   0.0450  -0.0584  -0.0545   0.80    1.2
2023/06/14 07:54:26.800         5.2623       -17.2109        -2.3967   2  11   0.0547   0.0531   0.1140   0.0448  -0.0581  -0.0542   0.80    1.2
2023/06/14 07:54:27.000         5.2554       -17.2108        -2.3928   2  11   0.0544   0.0529   0.1135   0.0446  -0.0578  -0.0538   0.40    1.2
2023/06/14 07:54:27.200         5.2445       -17.2160        -2.3739   2  11   0.0541   0.0527   0.1129   0.0444  -0.0575  -0.0535   0.40    1.2
2023/06/14 07:54:27.400         5.2347       -17.2206        -2.3612   2  11   0.0539   0.0524   0.1124   0.0442  -0.0572  -0.0532   0.60    1.2
2023/06/14 07:54:27.600         5.2252       -17.2267        -2.3438   2  11   0.0537   0.0522   0.1119   0.0440  -0.0569  -0.0530   0.80    1.2
2023/06/14 07:54:27.800         5.2188       -17.2288        -2.3317   2  11   0.0534   0.0520   0.1114   0.0438  -0.0566  -0.0527   1.00    1.2
2023/06/14 07:54:28.000         5.2122       -17.2287        -2.3308   2  11   0.0532   0.0518   0.1109   0.0436  -0.0563  -0.0524   1.00    1.2
2023/06/14 07:54:28.200         5.2037       -17.2320        -2.3185   2  11   0.0530   0.0516   0.1105   0.0434  -0.0561  -0.0521   1.20    1.3
2023/06/14 07:54:28.400         5.1931       -17.2360        -2.2998   2  11   0.0528   0.0514   0.1100   0.0432  -0.0558  -0.0519   1.40    1.3
2023/06/14 07:54:28.600         5.1795       -17.2433        -2.2810   2  11   0.0525   0.0512   0.1095   0.0430  -0.0555  -0.0516   0.40    1.3
2023/06/14 07:54:28.800         5.1718       -17.2409        -2.2775   2  11   0.0523   0.0509   0.1090   0.0429  -0.0553  -0.0513   0.40    1.3
2023/06/14 07:54:29.000         5.1661       -17.2431        -2.2676   2  11   0.0523   0.0508   0.1088   0.0428  -0.0552  -0.0514   0.60    1.4
2023/06/14 07:54:29.200         5.1611       -17.2429        -2.2592   2  11   0.0521   0.0507   0.1085   0.0426  -0.0551  -0.0513   0.80    1.4
2023/06/14 07:54:29.400         5.1570       -17.2416        -2.2490   2  11   0.0518   0.0504   0.1079   0.0424  -0.0547  -0.0508   1.00    1.3
2023/06/14 07:54:29.600         5.1471       -17.2458        -2.2369   2  11   0.0516   0.0502   0.1074   0.0422  -0.0545  -0.0506   1.20    1.3
2023/06/14 07:54:29.800         5.1542       -17.2395        -2.2372   2   5   0.0533   0.0509   0.1096   0.0434  -0.0560  -0.0529   0.40    1.1
2023/06/14 07:54:30.000         5.1539       -17.2388        -2.2342   2   5   0.0532   0.0509   0.1095   0.0434  -0.0560  -0.0529   0.60    1.1
2023/06/14 07:54:30.200         5.1447       -17.2473        -2.2035   2  11   0.0513   0.0499   0.1067   0.0420  -0.0541  -0.0503   0.40    1.3
2023/06/14 07:54:30.400         5.1316       -17.2505        -2.1866   2  11   0.0511   0.0497   0.1063   0.0418  -0.0539  -0.0500   0.60    1.3
2023/06/14 07:54:30.600         5.1252       -17.2506        -2.1826   2  11   0.0509   0.0495   0.1059   0.0416  -0.0536  -0.0498   0.60    1.3
2023/06/14 07:54:30.800         5.1089       -17.2596        -2.1487   2  11   0.0507   0.0493   0.1054   0.0415  -0.0534  -0.0496   0.40    1.3
2023/06/14 07:54:31.000         5.1018       -17.2642        -2.1334   2  11   0.0505   0.0491   0.1050   0.0413  -0.0532  -0.0494   0.40    1.2
2023/06/14 07:54:31.200         5.0942       -17.2664        -2.1224   2  11   0.0503   0.0489   0.1046   0.0411  -0.0530  -0.0491   0.40    1.2
2023/06/14 07:54:31.400         5.0830       -17.2718        -2.1017   2  11   0.0501   0.0488   0.1042   0.0410  -0.0528  -0.0489   0.60    1.2
2023/06/14 07:54:31.600         5.0828       -17.2762        -2.0788   2   5   0.0519   0.0496   0.1066   0.0423  -0.0544  -0.0513   0.60    1.1
2023/06/14 07:54:31.800         5.0786       -17.2718        -2.0822   2  11   0.0499   0.0485   0.1037   0.0408  -0.0525  -0.0487   0.40    1.2
2023/06/14 07:54:32.000         5.0629       -17.2808        -2.0577   2  11   0.0497   0.0483   0.1033   0.0407  -0.0523  -0.0484   0.40    1.2
2023/06/14 07:54:32.200         5.0542       -17.2820        -2.0465   2  11   0.0495   0.0482   0.1029   0.0405  -0.0520  -0.0483   0.40    1.2
2023/06/14 07:54:32.400         5.0484       -17.2837        -2.0335   2  11   0.0494   0.0480   0.1025   0.0403  -0.0519  -0.0480   0.60    1.2
2023/06/14 07:54:32.600         5.0356       -17.2896        -2.0071   2  11   0.0492   0.0478   0.1021   0.0402  -0.0516  -0.0478   0.40    1.1
2023/06/14 07:54:32.800         5.0237       -17.2982        -1.9833   2  11   0.0490   0.0477   0.1018   0.0400  -0.0514  -0.0476   0.40    1.1
2023/06/14 07:54:33.000         5.0173       -17.2967        -1.9722   2  11   0.0488   0.0475   0.1014   0.0399  -0.0512  -0.0474   0.40    1.1
2023/06/14 07:54:33.200         5.0095       -17.3023        -1.9499   2  11   0.0487   0.0474   0.1010   0.0397  -0.0510  -0.0472   0.40    1.1
2023/06/14 07:54:33.400         4.9984       -17.3059        -1.9323   2  11   0.0485   0.0472   0.1007   0.0396  -0.0508  -0.0470   0.60    1.1
2023/06/14 07:54:33.600         4.9878       -17.3115        -1.9184   2  11   0.0483   0.0470   0.1003   0.0394  -0.0506  -0.0468   0.20    1.1
2023/06/14 07:54:33.800         4.9809       -17.3123        -1.9068   2  11   0.0481   0.0468   0.0999   0.0393  -0.0504  -0.0466   0.40    1.1
2023/06/14 07:54:34.000         4.9701       -17.3168        -1.8896   2  11   0.0480   0.0467   0.0996   0.0392  -0.0503  -0.0464   0.40    1.1
2023/06/14 07:54:34.200         4.9607       -17.3237        -1.8650   2  11   0.0478   0.0465   0.0992   0.0390  -0.0501  -0.0462   0.40    1.1
2023/06/14 07:54:34.400         4.9492       -17.3296        -1.8454   2  11   0.0476   0.0463   0.0989   0.0389  -0.0499  -0.0460   0.60    1.1
2023/06/14 07:54:34.600         4.9426       -17.3302        -1.8379   2  11   0.0475   0.0462   0.0985   0.0388  -0.0497  -0.0459   0.40    1.1
2023/06/14 07:54:34.800         4.9327       -17.3353        -1.8113   2  11   0.0474   0.0461   0.0982   0.0386  -0.0495  -0.0457   0.40    1.1
2023/06/14 07:54:35.000         4.9262       -17.3356        -1.7997   2  11   0.0472   0.0459   0.0979   0.0385  -0.0493  -0.0455   0.40    1.1
2023/06/14 07:54:35.200         4.8848       -17.3619        -1.7359   2  12   0.0470   0.0458   0.0975   0.0383  -0.0491  -0.0452   0.40    1.0
2023/06/14 07:54:35.400         4.8539       -17.3807        -1.6791   2  12   0.0467   0.0456   0.0970   0.0381  -0.0488  -0.0449   0.60    1.0
2023/06/14 07:54:35.600         4.8183       -17.3997        -1.6240   2  12   0.0465   0.0454   0.0966   0.0379  -0.0486  -0.0446   0.80    1.0
2023/06/14 07:54:35.800         4.7897       -17.4141        -1.5732   2  12   0.0464   0.0452   0.0963   0.0378  -0.0484  -0.0443   1.00    1.0
2023/06/14 07:54:36.000         4.7591       -17.4312        -1.5183   2  12   0.0461   0.0451   0.0959   0.0377  -0.0482  -0.0441   1.20    1.0
2023/06/14 07:54:36.200         4.7557       -17.4270        -1.5312   2  11   0.0460   0.0450   0.0956   0.0375  -0.0480  -0.0440   0.40    1.0
2023/06/14 07:54:36.400         4.7437       -17.4261        -1.5212   2  11   0.0459   0.0448   0.0952   0.0374  -0.0478  -0.0439   0.60    1.0
2023/06/14 07:54:36.600         4.7370       -17.4314        -1.5060   2  11   0.0457   0.0447   0.0949   0.0373  -0.0477  -0.0437   0.60    1.0
2023/06/14 07:54:36.800         4.7275       -17.4430        -1.4727   2   5   0.0477   0.0456   0.0976   0.0387  -0.0495  -0.0464   0.40    1.0
2023/06/14 07:54:37.000         4.7047       -17.4451        -1.4563   2  12   0.0455   0.0444   0.0943   0.0370  -0.0473  -0.0434   0.40    1.0
2023/06/14 07:54:37.200         4.6757       -17.4613        -1.4071   2  12   0.0452   0.0443   0.0940   0.0369  -0.0471  -0.0431   0.40    1.0
2023/06/14 07:54:37.400         4.6451       -17.4763        -1.3611   2  12   0.0451   0.0442   0.0936   0.0367  -0.0469  -0.0429   0.60    1.0
2023/06/14 07:54:37.600         4.6172       -17.4906        -1.3148   2  12   0.0449   0.0440   0.0933   0.0366  -0.0467  -0.0426   0.80    1.0
2023/06/14 07:54:37.800         4.5846       -17.5095        -1.2557   2  12   0.0447   0.0438   0.0929   0.0365  -0.0465  -0.0424   0.60    1.0
2023/06/14 07:54:38.000         4.5587       -17.5170        -1.2346   2  12   0.0445   0.0436   0.0925   0.0363  -0.0463  -0.0422   0.40    1.0
2023/06/14 07:54:38.200         4.5328       -17.5291        -1.2010   2  12   0.0444   0.0436   0.0921   0.0361  -0.0460  -0.0420   0.40    1.0
2023/06/14 07:54:38.400         4.5032       -17.5411        -1.1656   2  12   0.0442   0.0433   0.0917   0.0361  -0.0458  -0.0418   0.60    1.0
2023/06/14 07:54:38.600         4.4784       -17.5514        -1.1327   2  12   0.0440   0.0433   0.0914   0.0359  -0.0456  -0.0416   0.80    1.0
2023/06/14 07:54:38.800         4.4572       -17.5577        -1.1121   2  12   0.0439   0.0431   0.0910   0.0358  -0.0454  -0.0414   0.80    1.0
2023/06/14 07:54:39.000         4.4281       -17.5687        -1.0780   2  12   0.0437   0.0429   0.0907   0.0356  -0.0452  -0.0411   0.40    1.0
2023/06/14 07:54:39.200         4.4028       -17.5802        -1.0411   2  12   0.0436   0.0428   0.0903   0.0355  -0.0450  -0.0409   0.40    1.0
2023/06/14 07:54:39.400         4.3799       -17.5891        -1.0161   2  12   0.0433   0.0426   0.0900   0.0354  -0.0448  -0.0407   0.60    1.0
2023/06/14 07:54:39.600         4.3535       -17.5992        -0.9862   2  12   0.0432   0.0425   0.0896   0.0352  -0.0446  -0.0406   0.60    1.0
2023/06/14 07:54:39.800         4.3260       -17.6106        -0.9579   2  12   0.0430   0.0423   0.0893   0.0351  -0.0444  -0.0403   0.40    1.0
2023/06/14 07:54:40.000         4.3034       -17.6203        -0.9288   2  12   0.0429   0.0422   0.0889   0.0350  -0.0442  -0.0402   0.40    1.0
2023/06/14 07:54:40.200         4.2784       -17.6300        -0.9031   2  12   0.0427   0.0421   0.0886   0.0348  -0.0440  -0.0400   0.40    1.0
2023/06/14 07:54:40.400         4.2566       -17.6377        -0.8756   2  12   0.0426   0.0419   0.0883   0.0347  -0.0438  -0.0398   0.60    1.0
2023/06/14 07:54:40.600         4.2316       -17.6477        -0.8459   2  12   0.0425   0.0418   0.0880   0.0345  -0.0437  -0.0396   0.80    1.0
2023/06/14 07:54:40.800         4.2110       -17.6566        -0.8211   2  12   0.0423   0.0417   0.0876   0.0345  -0.0435  -0.0394   0.80    1.0
2023/06/14 07:54:41.000         4.1827       -17.6665        -0.7950   2  12   0.0421   0.0415   0.0873   0.0343  -0.0433  -0.0392   0.40    1.0
2023/06/14 07:54:41.200         4.1576       -17.6785        -0.7564   2  12   0.0420   0.0414   0.0871   0.0342  -0.0432  -0.0390   0.40    1.0
2023/06/14 07:54:41.400         4.1401       -17.6882        -0.7173   2  12   0.0418   0.0413   0.0867   0.0341  -0.0430  -0.0389   0.60    1.0
2023/06/14 07:54:41.600         4.1431       -17.6927        -0.7159   2   5   0.0441   0.0423   0.0898   0.0357  -0.0451  -0.0420   0.60    1.0
2023/06/14 07:54:41.800         4.1173       -17.6991        -0.6895   2  12   0.0416   0.0411   0.0863   0.0340  -0.0428  -0.0387   0.40    1.0
2023/06/14 07:54:42.000         4.0967       -17.7062        -0.6649   2  12   0.0415   0.0410   0.0860   0.0338  -0.0426  -0.0385   0.40    1.0
2023/06/14 07:54:42.200         4.0740       -17.7149        -0.6459   2  12   0.0413   0.0408   0.0857   0.0337  -0.0424  -0.0383   0.40    1.0
2023/06/14 07:54:42.400         4.0507       -17.7272        -0.6151   2  12   0.0413   0.0408   0.0855   0.0336  -0.0423  -0.0381   0.60    1.0
2023/06/14 07:54:42.600         4.0330       -17.7376        -0.5842   2  12   0.0411   0.0405   0.0852   0.0335  -0.0421  -0.0380   0.80    1.0
2023/06/14 07:54:42.800         4.0115       -17.7472        -0.5507   2  12   0.0410   0.0405   0.0850   0.0334  -0.0420  -0.0378   1.00    1.0
2023/06/14 07:54:43.000         3.9909       -17.7524        -0.5298   2  11   0.0408   0.0404   0.0847   0.0333  -0.0419  -0.0376   1.00    1.2
2023/06/14 07:54:43.200         3.9752       -17.7552        -0.5176   2  11   0.0407   0.0402   0.0844   0.0332  -0.0417  -0.0375   0.40    1.2
2023/06/14 07:54:43.400         3.9541       -17.7612        -0.5054   2  11   0.0406   0.0402   0.0842   0.0330  -0.0416  -0.0373   0.60    1.2
2023/06/14 07:54:43.600         3.9341       -17.7700        -0.4813   2  11   0.0405   0.0400   0.0839   0.0329  -0.0414  -0.0372   0.60    1.2
2023/06/14 07:54:43.800         3.9161       -17.7717        -0.4800   2  11   0.0403   0.0399   0.0836   0.0328  -0.0413  -0.0370   0.40    1.2
2023/06/14 07:54:44.000         3.9007       -17.7748        -0.4690   2  11   0.0401   0.0397   0.0834   0.0327  -0.0411  -0.0369   0.40    1.2
2023/06/14 07:54:44.200         3.8813       -17.7825        -0.4492   2  11   0.0400   0.0397   0.0831   0.0326  -0.0410  -0.0367   0.40    1.2
2023/06/14 07:54:44.400         3.8661       -17.7850        -0.4406   2  11   0.0399   0.0396   0.0829   0.0325  -0.0408  -0.0366   0.60    1.2
2023/06/14 07:54:44.600         3.8513       -17.7880        -0.4320   2  11   0.0398   0.0395   0.0826   0.0324  -0.0407  -0.0364   0.40    1.2
2023/06/14 07:54:44.800         3.8332       -17.7940        -0.4085   2  12   0.0396   0.0394   0.0824   0.0323  -0.0406  -0.0362   0.40    1.0
2023/06/14 07:54:45.000         3.8167       -17.8013        -0.3936   2  12   0.0395   0.0393   0.0821   0.0322  -0.0404  -0.0361   0.40    1.0
2023/06/14 07:54:45.200         3.8023       -17.8048        -0.3824   2  12   0.0394   0.0391   0.0818   0.0321  -0.0402  -0.0360   0.40    1.0
2023/06/14 07:54:45.400         3.7894       -17.8062        -0.3721   2  12   0.0393   0.0390   0.0815   0.0320  -0.0401  -0.0358   0.60    1.0
2023/06/14 07:54:45.600         3.7707       -17.8167        -0.3508   2  12   0.0392   0.0389   0.0813   0.0318  -0.0399  -0.0357   0.60    1.0
2023/06/14 07:54:45.800         3.7545       -17.8211        -0.3315   2  12   0.0390   0.0388   0.0810   0.0318  -0.0398  -0.0355   0.40    1.0
2023/06/14 07:54:46.000         3.7413       -17.8249        -0.3273   2  12   0.0389   0.0387   0.0808   0.0317  -0.0396  -0.0354   0.40    1.0
2023/06/14 07:54:46.200         3.7324       -17.8261        -0.3160   2  12   0.0387   0.0385   0.0805   0.0316  -0.0395  -0.0353   0.40    1.0
2023/06/14 07:54:46.400         3.7224       -17.8304        -0.3023   2  12   0.0387   0.0385   0.0803   0.0315  -0.0394  -0.0351   0.60    1.0
2023/06/14 07:54:46.600         3.7105       -17.8329        -0.2912   2  12   0.0385   0.0383   0.0800   0.0314  -0.0392  -0.0350   0.80    1.0
2023/06/14 07:54:46.800         3.6953       -17.8374        -0.2835   2  12   0.0385   0.0382   0.0798   0.0313  -0.0391  -0.0349   0.80    1.0
2023/06/14 07:54:47.000         3.6924       -17.8350        -0.2917   2  11   0.0385   0.0382   0.0797   0.0313  -0.0391  -0.0349   1.00    1.0
2023/06/14 07:54:47.200         3.6855       -17.8350        -0.2930   2  11   0.0384   0.0381   0.0795   0.0312  -0.0390  -0.0348   1.20    1.0
2023/06/14 07:54:47.400         3.6845       -17.8332        -0.2979   2  11   0.0383   0.0380   0.0793   0.0312  -0.0389  -0.0348   1.40    1.0
2023/06/14 07:54:47.600         3.6809       -17.8313        -0.2988   2  11   0.0382   0.0379   0.0791   0.0311  -0.0388  -0.0347   1.60    1.0
2023/06/14 07:54:47.800         3.6815       -17.8279        -0.3079   2  11   0.0382   0.0379   0.0789   0.0310  -0.0386  -0.0346   1.80    1.0
2023/06/14 07:54:48.000         3.6757       -17.8270        -0.3133   2  11   0.0380   0.0378   0.0787   0.0309  -0.0385  -0.0345   0.80    1.0
2023/06/14 07:54:48.200         3.6687       -17.8269        -0.3131   2  11   0.0379   0.0376   0.0784   0.0308  -0.0384  -0.0344   0.60    1.0
2023/06/14 07:54:48.400         3.6680       -17.8229        -0.3200   2  11   0.0378   0.0375   0.0783   0.0308  -0.0383  -0.0343   0.80    1.0
2023/06/14 07:54:48.600         3.6613       -17.8246        -0.3207   2  11   0.0378   0.0374   0.0780   0.0307  -0.0382  -0.0342   0.60    1.0
2023/06/14 07:54:48.800         3.6589       -17.8208        -0.3266   2  11   0.0378   0.0374   0.0778   0.0306  -0.0381  -0.0341   0.40    1.0
2023/06/14 07:54:49.000         3.6690       -17.8173        -0.3360   2   5   0.0400   0.0385   0.0813   0.0323  -0.0405  -0.0376   0.40    1.1
2023/06/14 07:54:49.200         3.6564       -17.8186        -0.3251   2  11   0.0375   0.0372   0.0776   0.0305  -0.0379  -0.0341   0.40    1.0
2023/06/14 07:54:49.400         3.6542       -17.8173        -0.3344   2  11   0.0375   0.0371   0.0774   0.0305  -0.0379  -0.0339   0.60    1.0
2023/06/14 07:54:49.600         3.6522       -17.8153        -0.3440   2  11   0.0374   0.0371   0.0772   0.0304  -0.0377  -0.0339   0.60    1.0
2023/06/14 07:54:49.800         3.6465       -17.8155        -0.3377   2  11   0.0374   0.0369   0.0770   0.0303  -0.0377  -0.0338   0.40    1.0
2023/06/14 07:54:50.000         3.6465       -17.8085        -0.3524   2  11   0.0373   0.0369   0.0768   0.0302  -0.0376  -0.0337   0.40    1.0
2023/06/14 07:54:50.200         3.6510       -17.8034        -0.3687   2  11   0.0372   0.0367   0.0766   0.0301  -0.0374  -0.0336   0.40    1.0
2023/06/14 07:54:50.400         3.6454       -17.7995        -0.3689   2  11   0.0371   0.0368   0.0765   0.0301  -0.0373  -0.0336   0.60    1.0
2023/06/14 07:54:50.600         3.6401       -17.8041        -0.3566   2  11   0.0370   0.0366   0.0763   0.0301  -0.0372  -0.0335   0.60    1.0
2023/06/14 07:54:50.800         3.6390       -17.8031        -0.3620   2  11   0.0369   0.0365   0.0761   0.0300  -0.0371  -0.0334   0.40    1.0
2023/06/14 07:54:51.000         3.6354       -17.7992        -0.3724   2  11   0.0369   0.0364   0.0759   0.0299  -0.0370  -0.0333   0.40    1.0
2023/06/14 07:54:51.200         3.6361       -17.7943        -0.3773   2  11   0.0368   0.0364   0.0757   0.0298  -0.0370  -0.0332   0.40    1.0
2023/06/14 07:54:51.400         3.6367       -17.7907        -0.3832   2  11   0.0367   0.0363   0.0755   0.0297  -0.0369  -0.0332   0.60    1.0
2023/06/14 07:54:51.600         3.6267       -17.7929        -0.3752   2  11   0.0366   0.0362   0.0753   0.0297  -0.0368  -0.0330   0.60    1.0
2023/06/14 07:54:51.800         3.6313       -17.7874        -0.3897   2  11   0.0365   0.0361   0.0752   0.0296  -0.0366  -0.0330   0.40    1.0
2023/06/14 07:54:52.000         3.6292       -17.7843        -0.3949   2  11   0.0364   0.0360   0.0750   0.0296  -0.0365  -0.0329   0.60    1.0
2023/06/14 07:54:52.200         3.6283       -17.7831        -0.3964   2  11   0.0363   0.0359   0.0748   0.0295  -0.0365  -0.0329   0.80    1.0
2023/06/14 07:54:52.400         3.6272       -17.7786        -0.4020   2  11   0.0363   0.0358   0.0746   0.0294  -0.0364  -0.0328   0.80    1.0
2023/06/14 07:54:52.600         3.6269       -17.7771        -0.4104   2  11   0.0362   0.0357   0.0744   0.0294  -0.0363  -0.0327   0.40    1.0
2023/06/14 07:54:52.800         3.6271       -17.7731        -0.4143   2  11   0.0362   0.0357   0.0743   0.0292  -0.0362  -0.0326   0.40    1.0
2023/06/14 07:54:53.000         3.6267       -17.7718        -0.4100   2  11   0.0361   0.0356   0.0741   0.0292  -0.0361  -0.0325   0.40    1.0
2023/06/14 07:54:53.200         3.6276       -17.7673        -0.4241   2  11   0.0360   0.0355   0.0739   0.0291  -0.0360  -0.0324   0.40    1.0
2023/06/14 07:54:53.400         3.6275       -17.7643        -0.4251   2  11   0.0359   0.0354   0.0738   0.0291  -0.0359  -0.0324   0.60    1.0
2023/06/14 07:54:53.600         3.6292       -17.7606        -0.4326   2  11   0.0358   0.0354   0.0736   0.0290  -0.0358  -0.0324   0.60    1.0
2023/06/14 07:54:53.800         3.6271       -17.7592        -0.4327   2  11   0.0357   0.0353   0.0734   0.0290  -0.0357  -0.0323   0.40    1.0
2023/06/14 07:54:54.000         3.6291       -17.7539        -0.4382   2  11   0.0357   0.0352   0.0733   0.0289  -0.0356  -0.0322   0.40    1.0
2023/06/14 07:54:54.200         3.6263       -17.7510        -0.4431   2  11   0.0356   0.0351   0.0731   0.0288  -0.0355  -0.0321   0.40    1.0
2023/06/14 07:54:54.400         3.6290       -17.7477        -0.4525   2  11   0.0356   0.0351   0.0729   0.0287  -0.0355  -0.0320   0.60    1.0
2023/06/14 07:54:54.600         3.6283       -17.7471        -0.4503   2  11   0.0355   0.0349   0.0728   0.0287  -0.0354  -0.0319   0.60    1.0
2023/06/14 07:54:54.800         3.6208       -17.7475        -0.4482   2  11   0.0354   0.0349   0.0726   0.0286  -0.0353  -0.0319   0.40    1.0
2023/06/14 07:54:55.000         3.6257       -17.7394        -0.4638   2  11   0.0353   0.0348   0.0724   0.0285  -0.0352  -0.0318   0.20    1.0
2023/06/14 07:54:55.200         3.6239       -17.7371        -0.4653   2  11   0.0353   0.0347   0.0723   0.0285  -0.0351  -0.0317   0.40    1.0
2023/06/14 07:54:55.400         3.6241       -17.7326        -0.4708   2  11   0.0352   0.0346   0.0721   0.0284  -0.0350  -0.0316   0.60    1.0
2023/06/14 07:54:55.600         3.6217       -17.7324        -0.4710   2  11   0.0351   0.0346   0.0719   0.0284  -0.0349  -0.0316   0.80    1.0
2023/06/14 07:54:55.800         3.6219       -17.7297        -0.4790   2  11   0.0350   0.0345   0.0718   0.0283  -0.0348  -0.0315   0.40    1.0
2023/06/14 07:54:56.000         3.6240       -17.7265        -0.4814   2  11   0.0349   0.0344   0.0716   0.0282  -0.0347  -0.0315   0.40    1.0
2023/06/14 07:54:56.200         3.6228       -17.7260        -0.4888   2  11   0.0349   0.0343   0.0715   0.0282  -0.0347  -0.0314   0.40    1.0
2023/06/14 07:54:56.400         3.6231       -17.7233        -0.4924   2  11   0.0348   0.0343   0.0713   0.0281  -0.0346  -0.0313   0.60    1.0
2023/06/14 07:54:56.600         3.6287       -17.7217        -0.4937   2   5   0.0373   0.0354   0.0750   0.0300  -0.0372  -0.0350   0.40    1.1
2023/06/14 07:54:56.800         3.6271       -17.7244        -0.4899   2   5   0.0373   0.0354   0.0750   0.0300  -0.0372  -0.0350   0.40    1.1
2023/06/14 07:54:57.000         3.6248       -17.7205        -0.4857   2  11   0.0347   0.0341   0.0711   0.0280  -0.0345  -0.0312   0.40    1.0
2023/06/14 07:54:57.200         3.6323       -17.7199        -0.4822   2   5   0.0372   0.0353   0.0748   0.0299  -0.0371  -0.0349   0.40    1.1
2023/06/14 07:54:57.400         3.6328       -17.7201        -0.4823   2   5   0.0372   0.0353   0.0748   0.0299  -0.0371  -0.0349   0.60    1.1
2023/06/14 07:54:57.600         3.6359       -17.7184        -0.4771   2   5   0.0373   0.0353   0.0749   0.0299  -0.0372  -0.0350   0.80    1.1
2023/06/14 07:54:57.800         3.6405       -17.7157        -0.4870   2   5   0.0373   0.0353   0.0749   0.0299  -0.0372  -0.0351   1.00    1.1
2023/06/14 07:54:58.000         3.6307       -17.7232        -0.4734   2   5   0.0372   0.0352   0.0747   0.0298  -0.0371  -0.0349   0.40    1.1
2023/06/14 07:54:58.200         3.6310       -17.7246        -0.4744   2   5   0.0372   0.0352   0.0747   0.0298  -0.0371  -0.0349   0.60    1.1
2023/06/14 07:54:58.400         3.6378       -17.7216        -0.4784   2   5   0.0372   0.0352   0.0747   0.0298  -0.0371  -0.0350   0.80    1.1
2023/06/14 07:54:58.600         3.6394       -17.7189        -0.4789   2   5   0.0372   0.0352   0.0747   0.0299  -0.0371  -0.0350   1.00    1.1
2023/06/14 07:54:58.800         3.6399       -17.7208        -0.4761   2   5   0.0373   0.0352   0.0748   0.0299  -0.0372  -0.0351   1.20    1.1
2023/06/14 07:54:59.000         3.6475       -17.7140        -0.4844   2   5   0.0374   0.0352   0.0749   0.0299  -0.0372  -0.0352   1.40    1.1
2023/06/14 07:54:59.200         3.6446       -17.7157        -0.4677   2   5   0.0372   0.0351   0.0746   0.0298  -0.0371  -0.0350   1.00    1.1
2023/06/14 07:54:59.400         3.6545       -17.7128        -0.4786   2   5   0.0373   0.0351   0.0747   0.0298  -0.0371  -0.0351   1.20    1.1
2023/06/14 07:54:59.600         3.6498       -17.7166        -0.4646   2   5   0.0373   0.0351   0.0748   0.0299  -0.0372  -0.0352   1.40    1.1
2023/06/14 07:54:59.800         3.6541       -17.7132        -0.4717   2   5   0.0374   0.0351   0.0748   0.0299  -0.0372  -0.0353   1.60    1.1
2023/06/14 07:55:00.000         3.6609       -17.7055        -0.4941   2  11   0.0371   0.0349   0.0744   0.0297  -0.0369  -0.0349   1.00    1.0
2023/06/14 07:55:00.200         3.6551       -17.7055        -0.4904   2  11   0.0357   0.0342   0.0722   0.0286  -0.0355  -0.0329   0.40    1.0
2023/06/14 07:55:00.400         3.6541       -17.7040        -0.4893   2  11   0.0353   0.0340   0.0716   0.0283  -0.0351  -0.0324   0.60    1.0
2023/06/14 07:55:00.600         3.6564       -17.7004        -0.4943   2  11   0.0349   0.0338   0.0710   0.0280  -0.0347  -0.0319   0.60    1.0
2023/06/14 07:55:00.800         3.6527       -17.6986        -0.5008   2  11   0.0347   0.0337   0.0707   0.0279  -0.0345  -0.0316   0.40    1.0
2023/06/14 07:55:01.000         3.6529       -17.6942        -0.5078   2  11   0.0346   0.0335   0.0704   0.0278  -0.0344  -0.0314   0.40    1.0
2023/06/14 07:55:01.200         3.6512       -17.6897        -0.5068   2  11   0.0344   0.0334   0.0702   0.0277  -0.0342  -0.0312   0.40    1.0
2023/06/14 07:55:01.400         3.6551       -17.6865        -0.5137   2  11   0.0343   0.0333   0.0700   0.0276  -0.0341  -0.0311   0.60    1.0
2023/06/14 07:55:01.600         3.6538       -17.6837        -0.5188   2  11   0.0342   0.0333   0.0698   0.0275  -0.0340  -0.0310   0.60    1.0
2023/06/14 07:55:01.800         3.6553       -17.6816        -0.5217   2  11   0.0341   0.0332   0.0696   0.0274  -0.0339  -0.0309   0.40    1.0
2023/06/14 07:55:02.000         3.6545       -17.6801        -0.5223   2   5   0.0365   0.0343   0.0730   0.0292  -0.0363  -0.0343   0.40    1.1
2023/06/14 07:55:02.200         3.6554       -17.6796        -0.5195   2   5   0.0364   0.0343   0.0730   0.0292  -0.0362  -0.0343   0.40    1.1
2023/06/14 07:55:02.400         3.6576       -17.6772        -0.5195   2   5   0.0365   0.0343   0.0730   0.0292  -0.0362  -0.0343   0.60    1.0
2023/06/14 07:55:02.600         3.6603       -17.6781        -0.5190   2   5   0.0364   0.0343   0.0730   0.0292  -0.0362  -0.0343   0.60    1.0
2023/06/14 07:55:02.800         3.6588       -17.6775        -0.5264   2   5   0.0364   0.0342   0.0729   0.0291  -0.0362  -0.0343   0.40    1.0
2023/06/14 07:55:03.000         3.6650       -17.6740        -0.5257   2  11   0.0363   0.0341   0.0727   0.0291  -0.0361  -0.0342   0.40    1.0
2023/06/14 07:55:03.200         3.6628       -17.6682        -0.5311   2  11   0.0350   0.0334   0.0707   0.0280  -0.0347  -0.0323   0.40    1.0
2023/06/14 07:55:03.400         3.6644       -17.6630        -0.5489   2  11   0.0345   0.0332   0.0699   0.0277  -0.0342  -0.0316   0.40    1.0
2023/06/14 07:55:03.600         3.6636       -17.6587        -0.5502   2  11   0.0342   0.0330   0.0695   0.0274  -0.0339  -0.0312   0.40    1.0
2023/06/14 07:55:03.800         3.6611       -17.6572        -0.5519   2  11   0.0340   0.0329   0.0692   0.0273  -0.0337  -0.0309   0.40    1.0
2023/06/14 07:55:04.000         3.6627       -17.6532        -0.5598   2  11   0.0338   0.0329   0.0689   0.0272  -0.0335  -0.0308   0.40    1.0
2023/06/14 07:55:04.200         3.6641       -17.6483        -0.5683   2  11   0.0337   0.0327   0.0687   0.0271  -0.0334  -0.0306   0.40    1.0
2023/06/14 07:55:04.400         3.6632       -17.6461        -0.5710   2  11   0.0336   0.0326   0.0685   0.0270  -0.0333  -0.0305   0.60    1.0
2023/06/14 07:55:04.600         3.6617       -17.6437        -0.5789   2  11   0.0336   0.0326   0.0683   0.0269  -0.0332  -0.0304   0.60    1.0
2023/06/14 07:55:04.800         3.6660       -17.6379        -0.5889   2  11   0.0335   0.0325   0.0682   0.0269  -0.0331  -0.0303   0.60    1.0
2023/06/14 07:55:05.000         3.6621       -17.6377        -0.5899   2  11   0.0334   0.0324   0.0680   0.0268  -0.0330  -0.0302   0.40    1.0
2023/06/14 07:55:05.200         3.6618       -17.6346        -0.5928   2  11   0.0333   0.0324   0.0678   0.0267  -0.0329  -0.0301   0.40    1.0
2023/06/14 07:55:05.400         3.6637       -17.6284        -0.5941   2  11   0.0332   0.0323   0.0677   0.0267  -0.0329  -0.0300   0.60    1.0
2023/06/14 07:55:05.600         3.6613       -17.6286        -0.5933   2  11   0.0332   0.0322   0.0675   0.0266  -0.0328  -0.0300   0.60    1.0
2023/06/14 07:55:05.800         3.6607       -17.6262        -0.6064   2  11   0.0331   0.0321   0.0674   0.0266  -0.0327  -0.0299   0.40    1.0
2023/06/14 07:55:06.000         3.6633       -17.6212        -0.6227   2  11   0.0330   0.0321   0.0673   0.0265  -0.0326  -0.0298   0.40    1.0
2023/06/14 07:55:06.200         3.6622       -17.6177        -0.6264   2  11   0.0330   0.0320   0.0671   0.0265  -0.0326  -0.0297   0.40    1.0
2023/06/14 07:55:06.400         3.6606       -17.6140        -0.6377   2  11   0.0329   0.0319   0.0670   0.0264  -0.0325  -0.0297   0.60    1.0
2023/06/14 07:55:06.600         3.6613       -17.6107        -0.6386   2  11   0.0328   0.0319   0.0669   0.0264  -0.0324  -0.0296   0.80    1.0
2023/06/14 07:55:06.800         3.6581       -17.6098        -0.6333   2  11   0.0329   0.0318   0.0668   0.0263  -0.0324  -0.0295   0.80    1.0
2023/06/14 07:55:07.000         3.6621       -17.6102        -0.6271   2   5   0.0353   0.0331   0.0705   0.0282  -0.0349  -0.0333   0.40    1.0
2023/06/14 07:55:07.200         3.6608       -17.6042        -0.6433   2  11   0.0327   0.0317   0.0666   0.0263  -0.0323  -0.0295   0.40    1.0
2023/06/14 07:55:07.400         3.6614       -17.6024        -0.6523   2  11   0.0326   0.0317   0.0664   0.0262  -0.0322  -0.0295   0.60    1.1
2023/06/14 07:55:07.600         3.6588       -17.6001        -0.6584   2  11   0.0326   0.0317   0.0663   0.0262  -0.0321  -0.0294   0.80    1.1
2023/06/14 07:55:07.800         3.6554       -17.5979        -0.6615   2  11   0.0325   0.0316   0.0662   0.0261  -0.0320  -0.0293   0.80    1.1
2023/06/14 07:55:08.000         3.6642       -17.5855        -0.6773   2  11   0.0324   0.0316   0.0661   0.0261  -0.0320  -0.0293   0.40    1.1
2023/06/14 07:55:08.200         3.6496       -17.5929        -0.6596   2  11   0.0324   0.0315   0.0660   0.0260  -0.0319  -0.0292   0.40    1.1
2023/06/14 07:55:08.400         3.6635       -17.5834        -0.6769   2  11   0.0324   0.0314   0.0659   0.0260  -0.0319  -0.0291   0.60    1.1
2023/06/14 07:55:08.600         3.6570       -17.5837        -0.6795   2  11   0.0323   0.0314   0.0657   0.0259  -0.0318  -0.0291   0.80    1.1
2023/06/14 07:55:08.800         3.6581       -17.5848        -0.6793   2  11   0.0323   0.0313   0.0656   0.0259  -0.0317  -0.0291   0.80    1.1
2023/06/14 07:55:09.000         3.6570       -17.5781        -0.7025   2  11   0.0322   0.0313   0.0655   0.0258  -0.0317  -0.0290   0.40    1.1
2023/06/14 07:55:09.200         3.6523       -17.5769        -0.7029   2  11   0.0322   0.0313   0.0654   0.0258  -0.0316  -0.0289   0.60    1.1
2023/06/14 07:55:09.400         3.6599       -17.5702        -0.7126   2  11   0.0321   0.0312   0.0653   0.0258  -0.0315  -0.0289   0.80    1.1
2023/06/14 07:55:09.600         3.6603       -17.5645        -0.7201   2  11   0.0320   0.0312   0.0652   0.0257  -0.0315  -0.0288   1.00    1.1
2023/06/14 07:55:09.800         3.6618       -17.5581        -0.7322   2  11   0.0321   0.0311   0.0651   0.0257  -0.0314  -0.0287   1.20    1.1
2023/06/14 07:55:10.000         3.6578       -17.5572        -0.7342   2  11   0.0320   0.0310   0.0650   0.0256  -0.0314  -0.0287   1.20    1.1
2023/06/14 07:55:10.200         3.6589       -17.5544        -0.7404   2  11   0.0319   0.0310   0.0649   0.0256  -0.0313  -0.0287   1.40    1.1
2023/06/14 07:55:10.400         3.6570       -17.5521        -0.7421   2  11   0.0319   0.0310   0.0648   0.0256  -0.0313  -0.0286   1.60    1.1
2023/06/14 07:55:10.600         3.6581       -17.5488        -0.7474   2  11   0.0318   0.0310   0.0647   0.0256  -0.0312  -0.0286   1.80    1.2
2023/06/14 07:55:10.800         3.6621       -17.5435        -0.7548   2  11   0.0318   0.0309   0.0648   0.0255  -0.0313  -0.0285   2.00    1.2
2023/06/14 07:55:11.000         3.6550       -17.5457        -0.7423   2  10   0.0317   0.0308   0.0646   0.0254  -0.0312  -0.0285   0.60    1.1
2023/06/14 07:55:11.200         3.6573       -17.5408        -0.7477   2  11   0.0316   0.0308   0.0643   0.0253  -0.0310  -0.0284   0.80    1.2
2023/06/14 07:55:11.400         3.6540       -17.5386        -0.7594   2  11   0.0316   0.0307   0.0642   0.0253  -0.0310  -0.0283   1.00    1.2
2023/06/14 07:55:11.600         3.6498       -17.5395        -0.7539   2  11   0.0315   0.0305   0.0641   0.0253  -0.0309  -0.0283   0.60    1.2
2023/06/14 07:55:11.800         3.6445       -17.5392        -0.7512   2  11   0.0314   0.0305   0.0640   0.0252  -0.0308  -0.0283   0.40    1.2
2023/06/14 07:55:12.000         3.6494       -17.5328        -0.7659   2  11   0.0314   0.0305   0.0638   0.0252  -0.0308  -0.0282   0.40    1.2
2023/06/14 07:55:12.200         3.6503       -17.5321        -0.7595   2   5   0.0341   0.0318   0.0679   0.0272  -0.0336  -0.0322   0.40    1.0
2023/06/14 07:55:12.400         3.6524       -17.5318        -0.7570   2   5   0.0342   0.0319   0.0679   0.0272  -0.0336  -0.0322   0.60    1.0
2023/06/14 07:55:12.600         3.6540       -17.5281        -0.7605   2  11   0.0315   0.0305   0.0639   0.0253  -0.0309  -0.0284   0.60    1.3
2023/06/14 07:55:12.800         3.6527       -17.5276        -0.7708   2  11   0.0315   0.0304   0.0638   0.0253  -0.0308  -0.0284   0.40    1.3
2023/06/14 07:55:13.000         3.6567       -17.5235        -0.7782   2  11   0.0314   0.0304   0.0637   0.0252  -0.0307  -0.0284   0.40    1.3
2023/06/14 07:55:13.200         3.6615       -17.5179        -0.7774   2   5   0.0340   0.0316   0.0676   0.0271  -0.0335  -0.0321   0.40    1.0
2023/06/14 07:55:13.400         3.6642       -17.5150        -0.7878   2   5   0.0340   0.0316   0.0676   0.0271  -0.0335  -0.0321   0.60    1.0
2023/06/14 07:55:13.600         3.6546       -17.5192        -0.7860   2  11   0.0315   0.0303   0.0636   0.0251  -0.0307  -0.0283   0.60    1.0
